{
  "food_items": [
    {
      "address": "754 Ninth Ave",
      "categories": "Restaurant",
      "city": "New York",
      "country": "US",
      "cuisines": "Mexican, American, Traditional Mexican",
      "dateAdded": "2015-10-19T20:44:15Z",
      "dateUpdated": "2016-08-22T11:24:07Z",
      "keys": "us/nyc/newyork/754ninthave/-94354930",
      "latitude": 40.763858,
      "longitude": -73.988327,
      "menuPageURL": null,
      "menus.amountMax": 17,
      "menus.amountMin": 17,
      "menus.category": "Tacos",
      "menus.currency": "USD",
      "menus.dateSeen": "2016-08-21T00:00:00Z",
      "menus.description": null,
      "menus.name": "Trio of Tacos",
      "name": "Hell's Kitchen",
      "postalCode": "10019",
      "priceRangeCurrency": "USD",
      "priceRangeMin": 0,
      "priceRangeMax": 30,
      "province": "Nyc",
      "websites": "http://www.hellskitchen-nyc.com/contact.html",
      "is_vegan": "true",
      "is_veg": "true"
    },
    {
      "address": "571 Tremont St",
      "categories": "New American Restaurant,Wine Bar,Restaurant",
      "city": "Boston",
      "country": "US",
      "cuisines": "American, Comfort Food",
      "dateAdded": "2015-10-23T04:18:14Z",
      "dateUpdated": "2017-07-06T18:21:07Z",
      "keys": "us/ma/boston/571tremontst/499630026",
      "latitude": 42.343562,
      "longitude": -71.072393,
      "menuPageURL": null,
      "menus.amountMax": 17,
      "menus.amountMin": 17,
      "menus.category": null,
      "menus.currency": "USD",
      "menus.dateSeen": "2016-04-24T00:00:00Z,2016-03-22T03:51:01Z",
      "menus.description": null,
      "menus.name": "Big Burrito",
      "name": "Stephi's on Tremont",
      "postalCode": "2118",
      "priceRangeCurrency": "USD",
      "priceRangeMin": 0,
      "priceRangeMax": 30,
      "province": "MA",
      "websites": "http://www.stephisontremont.com/",
      "is_vegan": "true",
      "is_veg": "false"
    },
    {
      "address": "2500 New Stine Rd",
      "categories": "American Restaurant,BBQ Joint",
      "city": "Bakersfield",
      "country": "US",
      "cuisines": null,
      "dateAdded": "2015-10-23T01:26:19Z",
      "dateUpdated": "2017-07-01T18:43:10Z",
      "keys": "us/ca/bakersfield/2500newstinerd/94643146",
      "latitude": null,
      "longitude": null,
      "menuPageURL": null,
      "menus.amountMax": null,
      "menus.amountMin": null,
      "menus.category": null,
      "menus.currency": null,
      "menus.dateSeen": "2015-10-23T01:26:19Z",
      "menus.description": null,
      "menus.name": "Mesquite Grilled Mahi Tacos",
      "name": "Chuy's",
      "postalCode": "93309",
      "priceRangeCurrency": null,
      "priceRangeMin": null,
      "priceRangeMax": null,
      "province": "CA",
      "websites": null,
      "is_vegan": "false",
      "is_veg": "false"
    },
    {
      "address": "3657 W 26th St",
      "categories": "Mexican Restaurant,Mexican Restaurant Little Village",
      "city": "Chicago",
      "country": "US",
      "cuisines": null,
      "dateAdded": "2015-10-23T03:00:25Z",
      "dateUpdated": "2017-07-06T06:56:47Z",
      "keys": "us/il/chicago/3657w26thst/-1484651385",
      "latitude": null,
      "longitude": null,
      "menuPageURL": null,
      "menus.amountMax": 7,
      "menus.amountMin": 7,
      "menus.category": null,
      "menus.currency": "USD",
      "menus.dateSeen": "2016-03-25T03:11:40Z",
      "menus.description": null,
      "menus.name": "Burrito De Bistec",
      "name": "Restaurante Nuevo Leon",
      "postalCode": "60623",
      "priceRangeCurrency": "USD",
      "priceRangeMin": 0,
      "priceRangeMax": 25,
      "province": "IL",
      "websites": "http://nuevoleonrestaurant.com",
      "is_vegan": "false",
      "is_veg": "true"
    },
    {
      "address": "601 Linden Ave (us 13)",
      "categories": "Fast Food Restaurant and American Restaurant,Fast Food Restaurant,American Restaurant",
      "city": "Pocomoke City",
      "country": "US",
      "cuisines": null,
      "dateAdded": "2015-11-05T18:12:18Z",
      "dateUpdated": "2016-03-28T05:44:33Z",
      "keys": "us/md/pocomokecity/601lindenaveus13/-1161002137",
      "latitude": 38.07478001,
      "longitude": -75.55914441,
      "menuPageURL": null,
      "menus.amountMax": null,
      "menus.amountMin": null,
      "menus.category": null,
      "menus.currency": null,
      "menus.dateSeen": "2016-03-28T05:44:33Z",
      "menus.description": null,
      "menus.name": "Sausage Burrito",
      "name": "Mcdonald's",
      "postalCode": null,
      "priceRangeCurrency": null,
      "priceRangeMin": null,
      "priceRangeMax": null,
      "province": "MD",
      "websites": "http://mcdonalds.com",
      "is_vegan": "true",
      "is_veg": "false"
    },
    {
      "address": "4809 Marine Ave",
      "categories": "Mexican Restaurant",
      "city": "Lawndale",
      "country": "US",
      "cuisines": "Latin American Restaurants",
      "dateAdded": "2016-03-30T04:13:41Z",
      "dateUpdated": "2017-07-06T01:01:44Z",
      "keys": "us/ca/lawndale/4809marineave/-1553837131",
      "latitude": 33.89489293,
      "longitude": -118.361761,
      "menuPageURL": null,
      "menus.amountMax": 6.25,
      "menus.amountMin": 6.25,
      "menus.category": null,
      "menus.currency": "USD",
      "menus.dateSeen": "2016-03-30T04:13:41Z",
      "menus.description": "Beans, guacamole, pico de gallo",
      "menus.name": "Carnitas Burrito",
      "name": "El Tarasco Burrito",
      "postalCode": "90260",
      "priceRangeCurrency": "USD",
      "priceRangeMin": 0,
      "priceRangeMax": 25,
      "province": "CA",
      "websites": "http://eltarascoburritos.com",
      "is_vegan": "false",
      "is_veg": "true"
    },
    {
      "address": "11900 S W 88th St",
      "categories": "Tex-Mex Restaurant",
      "city": "Miami",
      "country": "US",
      "cuisines": null,
      "dateAdded": "2015-10-23T03:14:01Z",
      "dateUpdated": "2016-10-20T05:39:23Z",
      "keys": "us/kendall/miami/11900sw88thst/379971047",
      "latitude": null,
      "longitude": null,
      "menuPageURL": null,
      "menus.amountMax": 8.99,
      "menus.amountMin": 8.99,
      "menus.category": null,
      "menus.currency": "USD",
      "menus.dateSeen": "2016-10-20T05:39:23Z",
      "menus.description": null,
      "menus.name": "Grilled Smoked Chicken Burrito",
      "name": "Chili's Grill & Bar",
      "postalCode": "33186",
      "priceRangeCurrency": "USD",
      "priceRangeMin": 25,
      "priceRangeMax": 40,
      "province": "Kendall",
      "websites": "http://chilis.com",
      "is_vegan": "false",
      "is_veg": "true"
    },
    {
      "address": "55 Main St",
      "categories": "American Restaurant,Restaurant",
      "city": "Orleans",
      "country": "US",
      "cuisines": "Restaurants",
      "dateAdded": "2016-04-05T04:01:11Z",
      "dateUpdated": "2016-07-06T20:38:29Z",
      "keys": "us/ma/orleans/55mainst/176584989",
      "latitude": 41.78560208,
      "longitude": -69.98980502,
      "menuPageURL": null,
      "menus.amountMax": 8.99,
      "menus.amountMin": 8.99,
      "menus.category": null,
      "menus.currency": "USD",
      "menus.dateSeen": "2016-04-05T04:01:11Z",
      "menus.description": "Scrambled eggs, ham, onion, pepper and Monterey Jack cheese smothered with salsa and a side of sour cream, served with home fries.",
      "menus.name": "Breakfast Burrito",
      "name": "Homeport Restaurant",
      "postalCode": "2653",
      "priceRangeCurrency": "USD",
      "priceRangeMin": 25,
      "priceRangeMax": 40,
      "province": "MA",
      "websites": "http://homeportrestaurant.com",
      "is_vegan": "true",
      "is_veg": "false"
    },
    {
      "address": "10339 Federal Blvd",
      "categories": "Arcade,Mexican Restaurant",
      "city": "Denver",
      "country": "US",
      "cuisines": null,
      "dateAdded": "2017-01-07T07:07:53Z",
      "dateUpdated": "2017-01-07T07:07:53Z",
      "keys": "us/northglenn/denver/10339federalblvd/510310987",
      "latitude": 39.882393,
      "longitude": -105.025841,
      "menuPageURL": null,
      "menus.amountMax": null,
      "menus.amountMin": null,
      "menus.category": null,
      "menus.currency": null,
      "menus.dateSeen": "2017-01-07T07:07:53Z",
      "menus.description": null,
      "menus.name": "Taco or Tostada",
      "name": "Lucero's",
      "postalCode": "80260",
      "priceRangeCurrency": "USD",
      "priceRangeMin": 0,
      "priceRangeMax": 25,
      "province": "Northglenn",
      "websites": null,
      "is_vegan": "false",
      "is_veg": "false"
    },
    {
      "address": "1115 W Main St",
      "categories": "Restaurants,Pizza Place,Pizza",
      "city": "Woodville",
      "country": "US",
      "cuisines": "Pizza,Restaurants",
      "dateAdded": "2016-05-05T12:33:12Z",
      "dateUpdated": "2017-06-27T05:44:16Z",
      "keys": "us/oh/woodville/1115wmainst/369451936",
      "latitude": 41.455112,
      "longitude": -83.37463,
      "menuPageURL": null,
      "menus.amountMax": 5.8,
      "menus.amountMin": 5.8,
      "menus.category": null,
      "menus.currency": "USD",
      "menus.dateSeen": "2016-05-06T03:04:30Z",
      "menus.description": null,
      "menus.name": "Taco",
      "name": "Becks Pizza",
      "postalCode": "43469",
      "priceRangeCurrency": null,
      "priceRangeMin": null,
      "priceRangeMax": null,
      "province": "OH",
      "websites": null,
      "is_vegan": "true",
      "is_veg": "false"
    }
  ]
}